[
    {
        "city": "Sofia",
        "places": [
            {
                "name": "Saint Alexander Nevsky Cathedral",
                "imgs": [
                    "../images/nevski-cathedral-1.jpg",
                    "../images/nevski-cathedral-2.jpg"
                ],
                "latitude": 42.695808,
                "longitude": 23.332794
            },
            {
                "name": "National Palace of Culture",
                "imgs": [],
                "latitude": 42.68416393,
                "longitude": 23.317998728
            },
            {
                "name": "Zoo",
                "imgs": [],
                "latitude": 42.654830714,
                "longitude": 23.32583203
            }
        ],
        "country": "Bulgaria"
    },
    {
        "city": "Pernik",
        "places": [
            {
                "name": "Palace of Culture",
                "imgs": []
            },
            {
                "name": "Minyor Pernik Stadium",
                "imgs": []
            },
            {
                "name": "Pernik park",
                "imgs": []
            }
        ],
        "country": "Bulgaria"
    },
    {
        "city": "Burgas",
        "places": [],
        "country": "Bulgaria"
    },
    {
        "city": "Plovdiv",
        "places": [],
        "country": "Bulgaria"
    },
    {
        "city": "Varna",
        "places": [],
        "country": "Bulgaria"
    },
    {
        "city": "Veliko Tarnovo",
        "places": [],
        "country": "Bulgaria"
    },
    {
        "city": "Vratsa",
        "places": [],
        "country": "Bulgaria"
    },
    {
        "city": "Stara Zagora",
        "places": [],
        "country": "Bulgaria"
    },
    {
        "city": "Pleven",
        "places": [],
        "country": "Bulgaria"
    },
    {
        "city": "Lovech",
        "places": [],
        "country": "Bulgaria"
    },
    {
        "city": "Vidin",
        "places": [],
        "country": "Bulgaria"
    },
    {
        "city": "Sandanski",
        "places": [],
        "country": "Bulgaria"
    },
    {
        "city": "Pazardzhik",
        "places": [],
        "country": "Bulgaria"
    },
    {
        "city": "Gabrovo",
        "places": [],
        "country": "Bulgaria"
    },
    {
        "city": "Sliven",
        "places": [],
        "country": "Bulgaria"
    },
    {
        "city": "Dobrich",
        "places": [],
        "country": "Bulgaria"
    }
]